%time,field.transforms0.header.seq,field.transforms0.header.stamp,field.transforms0.header.frame_id,field.transforms0.child_frame_id,field.transforms0.transform.translation.x,field.transforms0.transform.translation.y,field.transforms0.transform.translation.z,field.transforms0.transform.rotation.x,field.transforms0.transform.rotation.y,field.transforms0.transform.rotation.z,field.transforms0.transform.rotation.w
744000000000,0,743800000000,world,ground_plane::link,0.0,0.0,0.0,0.0,0.0,0.0,1.0
744000000000,0,743800000000,world,AutoNOMOS_mini::base_link,3.59189354203,0.133837892124,0.0699904775023,2.06217651073e-06,-2.55839097365e-05,-0.190893893233,-0.98161067683
744000000000,0,743800000000,world,AutoNOMOS_mini::back_left_wheel_link,3.40610768804,0.166590987302,0.0199961467124,-0.188921035938,0.971468778604,0.027373475851,0.140740709098
744000000000,0,743800000000,world,AutoNOMOS_mini::back_right_wheel_link,3.48101051835,-0.0188581270611,0.0199958928266,-0.124759530996,0.641550263772,0.144483739975,0.742948697665
744000000000,0,743800000000,world,AutoNOMOS_mini::front_left_bar_link,3.7177439159,0.249426974684,0.0199885468627,-4.4568691254e-06,-2.53804510648e-05,-0.427813868034,-0.903866856154
744001000000,0,743800000000,world,AutoNOMOS_mini::front_left_wheel_link,3.68680845182,0.274784741913,0.019993432771,-0.401489774367,0.848263121535,0.147752050498,0.312129731515
744001000000,0,743800000000,world,AutoNOMOS_mini::front_right_bar_link,3.76271019155,0.138177460858,0.0199893356047,-4.2666003168e-06,-2.5284684059e-05,-0.427798246702,-0.903874249805
744001000000,0,743800000000,world,AutoNOMOS_mini::front_right_wheel_link,3.7936257497,0.112832967212,0.0199929922198,-0.35216758166,0.744099073559,0.242877196014,0.513132761391
744001000000,0,743800000000,world,AutoNOMOS_mini::steer_link,3.7402303411,0.193799766254,0.0199811219593,-4.34225122198e-06,-2.53182194738e-05,-0.42781384102,-0.903866868943
744001000000,0,743800000000,world,AutoNOMOS_mini::ackermann_bar_link,3.71487218205,0.162864913706,0.019983437868,2.05385667995e-06,-2.55992251965e-05,-0.190893840501,-0.981610687085
744001000000,0,743800000000,world,AutoNOMOS_mini::kinect::link,3.62898523127,0.148830509287,0.209988327271,0.00954278664666,-0.0490856583812,-0.190655223429,-0.980382639148
744200000000,0,744000000000,world,ground_plane::link,0.0,0.0,0.0,0.0,0.0,0.0,1.0
744200000000,0,744000000000,world,AutoNOMOS_mini::base_link,3.60883398377,0.146962476949,0.0699904810856,2.54080819293e-06,-2.55583208306e-05,-0.205650358504,-0.978625530725
744200000000,0,744000000000,world,AutoNOMOS_mini::back_left_wheel_link,3.42214416709,0.174107469528,0.0199961477023,-0.192688149029,0.916936621624,-0.0718563401365,-0.341957856366
744200000000,0,744000000000,world,AutoNOMOS_mini::back_right_wheel_link,3.50259807809,-0.00900281884174,0.0199958869522,-0.196389254826,0.934559815777,0.0610192181575,0.290354725016
744200000000,0,744000000000,world,AutoNOMOS_mini::front_left_bar_link,3.73114734155,0.266288097725,0.0199885435505,-3.9857062675e-06,-2.54762387772e-05,-0.441372995534,-0.897323730963
744200000000,0,744000000000,world,AutoNOMOS_mini::front_left_wheel_link,3.69946250985,0.290703124944,0.0199934314681,-0.436211935954,0.886825738128,-0.0672998482087,-0.136857544755
744200000000,0,744000000000,world,AutoNOMOS_mini::front_right_bar_link,3.7794425475,0.156442781014,0.0199893383731,-3.79675883888e-06,-2.53775050488e-05,-0.441357595914,-0.897331305522
744200000000,0,744000000000,world,AutoNOMOS_mini::front_right_wheel_link,3.81110711602,0.132040606761,0.0199929991886,-0.440976657637,0.896555321749,-0.0183333812176,-0.0373099128284
744200000000,0,744000000000,world,AutoNOMOS_mini::steer_link,3.75529830034,0.211363053974,0.0199811169974,-3.87173639662e-06,-2.54120780401e-05,-0.441373022546,-0.897323717678
744200000000,0,744000000000,world,AutoNOMOS_mini::ackermann_bar_link,3.73088297609,0.179678782327,0.019983438335,2.53285971239e-06,-2.55738184442e-05,-0.205650348297,-0.97862553287
744200000000,0,744000000000,world,AutoNOMOS_mini::kinect::link,3.64545748065,0.163065023127,0.209988328975,0.0102807811171,-0.0489364375981,-0.2053932231,-0.977401224943
744400000000,0,744200000000,world,ground_plane::link,0.0,0.0,0.0,0.0,0.0,0.0,1.0
744400000000,0,744200000000,world,AutoNOMOS_mini::base_link,3.62577325881,0.160932477333,0.0699952916886,3.00248898025e-06,-2.54989783794e-05,-0.220715733865,-0.975338179384
744400000000,0,744200000000,world,AutoNOMOS_mini::back_left_wheel_link,3.43834196123,0.182309857127,0.0200002099355,-0.142434670535,0.629404047389,-0.168605403614,-0.745073907496
744400000000,0,744200000000,world,AutoNOMOS_mini::back_right_wheel_link,3.52439245119,0.00175985537912,0.0200001495137,-0.212759616915,0.940175896128,-0.0587264855819,-0.259526163694
744400000000,0,744200000000,world,AutoNOMOS_mini::front_left_bar_link,3.74434901724,0.283972893934,0.0199948272752,-3.55333837756e-06,-2.55564296654e-05,-0.455156740513,-0.890411332419
744400000000,0,744200000000,world,AutoNOMOS_mini::front_left_wheel_link,3.7119262838,0.307399356069,0.020000642296,-0.35636913834,0.697134334154,-0.283140772885,-0.553927847388
744400000000,0,744200000000,world,AutoNOMOS_mini::front_right_bar_link,3.7960066351,0.175670233666,0.0199959870116,-3.31933619549e-06,-2.54294385688e-05,-0.455141570413,-0.890419086848
744400000000,0,744200000000,world,AutoNOMOS_mini::front_right_wheel_link,3.8284037015,0.15225951373,0.0200008554723,-0.347299789823,0.679419573243,-0.294171211084,-0.575530362407
744400000000,0,744200000000,world,AutoNOMOS_mini::steer_link,3.77018232053,0.229818536429,0.0199856304136,-3.4118076029e-06,-2.54738585714e-05,-0.455156753503,-0.890411325781
744400000000,0,744200000000,world,AutoNOMOS_mini::ackermann_bar_link,3.74675548234,0.197396560835,0.019988112546,2.99297651596e-06,-2.55184057194e-05,-0.220715744912,-0.975338176884
744400000000,0,744200000000,world,AutoNOMOS_mini::kinect::link,3.66188280851,0.17815667345,0.209993112123,0.0110341930231,-0.0487720856398,-0.220439748383,-0.974117984425
744600000000,0,744400000000,world,ground_plane::link,0.0,0.0,0.0,0.0,0.0,0.0,1.0
744600000000,0,744400000000,world,AutoNOMOS_mini::base_link,3.63878284695,0.172276729046,0.069995285858,3.29941999675e-06,-2.54424480405e-05,-0.232519014298,-0.972591850332
744600000000,0,744400000000,world,AutoNOMOS_mini::back_left_wheel_link,3.45089118794,0.18910567728,0.0200002203236,-0.0685239853141,0.286611418615,-0.222192564019,-0.92940240082
744600000000,0,744400000000,world,AutoNOMOS_mini::back_right_wheel_link,3.54128920367,0.0106937987725,0.0200001607271,-0.175174819842,0.732719805738,-0.152901586139,-0.639575307317
744600000000,0,744400000000,world,AutoNOMOS_mini::front_left_bar_link,3.75434190641,0.298154707437,0.0199948230249,-3.2502953732e-06,-2.55767883765e-05,-0.465913631608,-0.884830202478
744600000000,0,744400000000,world,AutoNOMOS_mini::front_left_wheel_link,3.72136101008,0.320788609887,0.0200006347184,-0.220038749219,0.417852445074,-0.410680487099,-0.779951165461
744600000000,0,744400000000,world,AutoNOMOS_mini::front_right_bar_link,3.80860909692,0.191135761191,0.0199959811575,-3.01809484186e-06,-2.54471300944e-05,-0.465898035879,-0.884838414349
744601000000,0,744400000000,world,AutoNOMOS_mini::front_right_wheel_link,3.84156396638,0.168517067795,0.0200008465351,-0.158978008629,0.301900630552,-0.437934891343,-0.831742167374
744601000000,0,744400000000,world,AutoNOMOS_mini::steer_link,3.78148002306,0.24464230475,0.0199856311881,-3.10982251528e-06,-2.54925781341e-05,-0.465913645828,-0.884830194993
744601000000,0,744400000000,world,AutoNOMOS_mini::ackermann_bar_link,3.75884582445,0.211662100996,0.0199881112288,3.29010581797e-06,-2.54618973427e-05,-0.232519225396,-0.972591799864
744601000000,0,744400000000,world,AutoNOMOS_mini::kinect::link,3.67446436016,0.190370974141,0.20999310735,0.0116244087555,-0.048634769606,-0.232228262859,-0.971375090393
744800000000,0,744600000000,world,ground_plane::link,0.0,0.0,0.0,0.0,0.0,0.0,1.0
744800000000,0,744600000000,world,AutoNOMOS_mini::base_link,3.65473935056,0.186974277881,0.06999528234,3.62724239552e-06,-2.53780458984e-05,-0.24730148606,-0.968938581302
744800000000,0,744600000000,world,AutoNOMOS_mini::back_left_wheel_link,3.46642400242,0.198074344294,0.0200002222463,0.0505607724719,-0.198113238912,-0.242077696799,-0.948468840588
744800000000,0,744600000000,world,AutoNOMOS_mini::back_right_wheel_link,3.56221088546,0.022497513204,0.0200001760609,-0.0707142516863,0.277047976479,-0.236975824447,-0.928486064497
744800000000,0,744600000000,world,AutoNOMOS_mini::front_left_bar_link,3.76641183039,0.31631269493,0.0199948217908,-2.91521218034e-06,-2.55976697173e-05,-0.479332704596,-0.877633270587
744800000000,0,744600000000,world,AutoNOMOS_mini::front_left_wheel_link,3.73275699656,0.337931922881,0.0200006293845,0.00978482149973,-0.0179481860597,-0.479232824888,-0.877449724734
744800000000,0,744600000000,world,AutoNOMOS_mini::front_right_bar_link,3.82391257306,0.210995813715,0.019995982256,-2.68523096045e-06,-2.54646408017e-05,-0.479317361945,-0.877641650039
744800000000,0,744600000000,world,AutoNOMOS_mini::front_right_wheel_link,3.85754085318,0.18939118072,0.020000846101,0.143978314248,-0.263659472764,-0.457181993129,-0.837101279779
744800000000,0,744600000000,world,AutoNOMOS_mini::steer_link,3.79516683024,0.263651425744,0.0199856352952,-2.77593267382e-06,-2.5511352067e-05,-0.479332733194,-0.877633254971
744800000000,0,744600000000,world,AutoNOMOS_mini::ackermann_bar_link,3.77354737144,0.229997307977,0.0199881114658,3.6181465086e-06,-2.53975440107e-05,-0.247301717674,-0.968938522187
744800000000,0,744600000000,world,AutoNOMOS_mini::kinect::link,3.68985334964,0.20614661821,0.209993105367,0.0123635519965,-0.0484521178016,-0.246992244002,-0.967726390188
745000000000,0,744800000000,world,ground_plane::link,0.0,0.0,0.0,0.0,0.0,0.0,1.0
745000000000,0,744800000000,world,AutoNOMOS_mini::base_link,3.66784393855,0.199738318781,0.069995284833,3.91469387047e-06,-2.53433069419e-05,-0.259720320584,-0.965683879133
745000000000,0,744800000000,world,AutoNOMOS_mini::back_left_wheel_link,3.47930846359,0.206000103647,0.0200002131964,0.153280130548,-0.56993234537,-0.209665976884,-0.779565585065
745000000000,0,744800000000,world,AutoNOMOS_mini::back_right_wheel_link,3.57956851244,0.0329401647368,0.0200001778568,0.0477054098688,-0.177390212229,-0.255301511162,-0.949251307544
745000000000,0,744800000000,world,AutoNOMOS_mini::front_left_bar_link,3.776158981,0.3319011893,0.0199948241277,-2.62686517567e-06,-2.56371058344e-05,-0.490560227703,-0.871407288432
745000000000,0,744800000000,world,AutoNOMOS_mini::front_left_wheel_link,3.74196015688,0.352649306132,0.0200006323435,0.214446105787,-0.380960415576,-0.441205401406,-0.783721776683
745000000000,0,744800000000,world,AutoNOMOS_mini::front_right_bar_link,3.83634465139,0.228095289991,0.0199959890455,-2.39860077453e-06,-2.55011336033e-05,-0.490545037027,-0.871415839879
745000000000,0,744800000000,world,AutoNOMOS_mini::front_right_wheel_link,3.87051646522,0.207361213383,0.0200008556426,0.37047049422,-0.658133921676,-0.321537000285,-0.571161370805
745000000000,0,744800000000,world,AutoNOMOS_mini::steer_link,3.80625653376,0.279995504938,0.0199856359241,-2.4885358034e-06,-2.55489455922e-05,-0.490560269997,-0.871407264625
745000000000,0,744800000000,world,AutoNOMOS_mini::ackermann_bar_link,3.78550823014,0.24579742814,0.0199881113203,3.90580982502e-06,-2.53629125543e-05,-0.259720561625,-0.965683814305
745000000000,0,744800000000,world,AutoNOMOS_mini::kinect::link,3.70245414275,0.219805841659,0.209993107736,0.0129845217806,-0.0482894158857,-0.259395543833,-0.964475757263
745200000000,0,745000000000,world,ground_plane::link,0.0,0.0,0.0,0.0,0.0,0.0,1.0
745200000000,0,745000000000,world,AutoNOMOS_mini::base_link,3.68249635892,0.214813142986,0.069990475372,4.28411948876e-06,-2.53215557933e-05,-0.27393875763,-0.961747137458
745200000000,0,745000000000,world,AutoNOMOS_mini::back_left_wheel_link,3.49385076197,0.215507265506,0.0199961500934,0.246518255025,-0.865484713051,-0.119462008284,-0.419396936077
745200000000,0,745000000000,world,AutoNOMOS_mini::back_right_wheel_link,3.5991839672,0.0454892207898,0.0199958952737,0.182691583715,-0.641405319885,-0.204123118271,-0.716628741714
745200000000,0,745000000000,world,AutoNOMOS_mini::front_left_bar_link,3.78686508909,0.350114109487,0.0199885396279,-2.23255923622e-06,-2.56868583301e-05,-0.503362673118,-0.864075238997
745200000000,0,745000000000,world,AutoNOMOS_mini::front_left_wheel_link,3.75206910257,0.369844273567,0.0199934271295,0.409115090796,-0.702307474347,-0.293255561626,-0.503378813157
745200000000,0,745000000000,world,AutoNOMOS_mini::front_right_bar_link,3.85008892161,0.248127988639,0.0199893357044,-2.05128319742e-06,-2.55752621746e-05,-0.503347661837,-0.864083983571
745200000000,0,745000000000,world,AutoNOMOS_mini::front_right_wheel_link,3.88486273217,0.228408272195,0.0199929970374,0.501667374391,-0.861202070631,-0.041093941183,-0.0705133108689
745200000000,0,745000000000,world,AutoNOMOS_mini::steer_link,3.81848070423,0.299119051529,0.019981112859,-2.12263356741e-06,-2.56144928118e-05,-0.503362720721,-0.864075211268
745200000000,0,745000000000,world,AutoNOMOS_mini::ackermann_bar_link,3.79875048132,0.264323665219,0.019983432173,4.27721335793e-06,-2.53374606538e-05,-0.273938860638,-0.961747108117
745200000000,0,745000000000,world,AutoNOMOS_mini::kinect::link,3.71649945953,0.23589302847,0.209988323481,0.0136955205098,-0.0480926324214,-0.273596192429,-0.960543937003
745401000000,0,745200000000,world,ground_plane::link,0.0,0.0,0.0,0.0,0.0,0.0,1.0
745401000000,0,745200000000,world,AutoNOMOS_mini::base_link,3.6971809399,0.230848894704,0.0699904772615,4.70913550134e-06,-2.52842650483e-05,-0.288583685523,-0.957454675579
745401000000,0,745200000000,world,AutoNOMOS_mini::back_left_wheel_link,3.50860319942,0.225785710798,0.0199961470001,0.28817620796,-0.956102258232,0.0153294982293,0.0508719122322
745401000000,0,745200000000,world,AutoNOMOS_mini::back_right_wheel_link,3.61907445293,0.0590612946243,0.0199958873632,0.277584328044,-0.920964600306,-0.0789145406755,-0.261808405285
745401000000,0,745200000000,world,AutoNOMOS_mini::front_left_bar_link,3.79737197239,0.369271936493,0.0199885364423,-1.8104276588e-06,-2.57580245935e-05,-0.516490376366,-0.856292993346
745401000000,0,745200000000,world,AutoNOMOS_mini::front_left_wheel_link,3.76199001923,0.387931055907,0.0199934299552,0.513456035756,-0.851265627686,-0.0559035677672,-0.0926526933079
745401000000,0,745200000000,world,AutoNOMOS_mini::front_right_bar_link,3.86367872572,0.269262757311,0.0199893288411,-1.63072950929e-06,-2.56435584291e-05,-0.516475463832,-0.856301987969
745401000000,0,745200000000,world,AutoNOMOS_mini::front_right_wheel_link,3.89903805953,0.250613480741,0.0199929915823,0.4339744092,-0.719500780863,0.280023418149,0.464297021083
745401000000,0,745200000000,world,AutoNOMOS_mini::steer_link,3.83052913304,0.319265448756,0.0199811017375,-1.70123376589e-06,-2.56837024906e-05,-0.516490401143,-0.856292978404
745401000000,0,745200000000,world,AutoNOMOS_mini::ackermann_bar_link,3.81186997038,0.283884150549,0.0199834252435,4.70252898518e-06,-2.5300328373e-05,-0.288583780608,-0.957454646919
745401000000,0,745200000000,world,AutoNOMOS_mini::kinect::link,3.73052489988,0.252956668453,0.209988322567,0.0144278863635,-0.0478780614921,-0.288222796658,-0.956256841445
745600000000,0,745401000000,world,ground_plane::link,0.0,0.0,0.0,0.0,0.0,0.0,1.0
745600000000,0,745401000000,world,AutoNOMOS_mini::base_link,3.70846612041,0.243863338678,0.0699952895986,5.04331850872e-06,-2.5221941766e-05,-0.300139890165,-0.953895196377
745600000000,0,745401000000,world,AutoNOMOS_mini::back_left_wheel_link,3.5200762622,0.234244697489,0.020000198608,0.269961208818,-0.857977403396,0.131167330723,0.416882300351
745600000000,0,745401000000,world,AutoNOMOS_mini::back_right_wheel_link,3.6345327118,0.0702309311335,0.0200001487307,0.295840736465,-0.94022962454,0.0506185623423,0.160885900351
745600000000,0,745401000000,world,AutoNOMOS_mini::front_left_bar_link,3.80528049998,0.384668688759,0.0199948243793,-1.49940938371e-06,-2.58059158473e-05,-0.526806666815,-0.849985138183
745600000000,0,745401000000,world,AutoNOMOS_mini::front_left_wheel_link,3.76945748043,0.402466818158,0.0200006478716,0.503540951364,-0.812437902187,0.15482821494,0.249838726477
745600000000,0,745401000000,world,AutoNOMOS_mini::front_right_bar_link,3.87398438442,0.286293114425,0.019995978667,-1.27674936596e-06,-2.56601865838e-05,-0.52679174669,-0.849994385252
745600000000,0,745401000000,world,AutoNOMOS_mini::front_right_wheel_link,3.9097788501,0.268506984835,0.0200008496394,0.242822983607,-0.391775293276,0.467489613908,0.754322596174
745600000000,0,745401000000,world,AutoNOMOS_mini::steer_link,3.83963745476,0.335478522588,0.0199856142824,-1.36376088942e-06,-2.57111709767e-05,-0.526806726057,-0.849985101468
745600000000,0,745401000000,world,AutoNOMOS_mini::ackermann_bar_link,3.82183921112,0.299656419661,0.0199880978439,5.03539287842e-06,-2.52420374202e-05,-0.300140115764,-0.953895125392
745600000000,0,745401000000,world,AutoNOMOS_mini::kinect::link,3.74126572394,0.266770969241,0.20999310713,0.015005787335,-0.0477001057752,-0.299764542871,-0.952701813315
745801000000,0,745600000000,world,ground_plane::link,0.0,0.0,0.0,0.0,0.0,0.0,1.0
745801000000,0,745600000000,world,AutoNOMOS_mini::base_link,3.72240522968,0.260851408172,0.069995285024,5.42228457201e-06,-2.51031585815e-05,-0.314821234386,-0.949150983627
745801000000,0,745600000000,world,AutoNOMOS_mini::back_left_wheel_link,3.53440264225,0.245424866765,0.0200002133788,0.180327336021,-0.543658001267,0.258058964434,0.778025449724
745801000000,0,745600000000,world,AutoNOMOS_mini::back_right_wheel_link,3.65386379472,0.0850205812404,0.0200001617896,0.232742366065,-0.701684667764,0.211998651823,0.639160535147
745801000000,0,745600000000,world,AutoNOMOS_mini::front_left_bar_link,3.81482921067,0.404576767706,0.0199948223581,-1.10118226294e-06,-2.57867796925e-05,-0.539857780849,-0.841756244878
745801000000,0,745600000000,world,AutoNOMOS_mini::front_left_wheel_link,3.77847403022,0.421261234438,0.0200006389781,0.36941702277,-0.575980649219,0.393671802985,0.613840261426
745801000000,0,745600000000,world,AutoNOMOS_mini::front_right_bar_link,3.88653556732,0.308367764243,0.0199959782122,-8.81131675584e-07,-2.56378799526e-05,-0.539843105678,-0.841765656578
745801000000,0,745600000000,world,AutoNOMOS_mini::front_right_wheel_link,3.92286163093,0.291694538777,0.0200008456154,-0.0980528823365,0.152920818279,0.530863642589,0.827758810632
745801000000,0,745600000000,world,AutoNOMOS_mini::steer_link,3.85068751154,0.356470019172,0.0199856224834,-9.66768861757e-07,-2.56898480623e-05,-0.53985792586,-0.841756151879
745801000000,0,745600000000,world,AutoNOMOS_mini::ackermann_bar_link,3.83400296182,0.320115840946,0.0199881028071,5.41464674307e-06,-2.51232511994e-05,-0.314821480676,-0.949150901935
745801000000,0,745600000000,world,AutoNOMOS_mini::kinect::link,3.7544824374,0.284760096883,0.209993104938,0.0157399269643,-0.0474628753059,-0.314427520344,-0.947963535489
746000000000,0,745800000000,world,ground_plane::link,0.0,0.0,0.0,0.0,0.0,0.0,1.0
746000000000,0,745800000000,world,AutoNOMOS_mini::base_link,3.73552756697,0.277864594861,0.0699904689112,5.76268910216e-06,-2.49823806286e-05,-0.32910825335,-0.944292198908
746001000000,0,745800000000,world,AutoNOMOS_mini::back_left_wheel_link,3.54806862592,0.256767916689,0.0199961640178,0.0371933048633,-0.106706215699,0.326999805047,0.938243875069
746001000000,0,745800000000,world,AutoNOMOS_mini::back_right_wheel_link,3.67232649678,0.100051983692,0.0199959016745,0.0895331505845,-0.256882018912,0.316695564125,0.908680011318
746001000000,0,745800000000,world,AutoNOMOS_mini::front_left_bar_link,3.82357228913,0.424313600951,0.01998853674,-7.11265529227e-07,-2.57311118491e-05,-0.552498446876,-0.83351392642
746001000000,0,745800000000,world,AutoNOMOS_mini::front_left_wheel_link,3.78673030472,0.439893407015,0.0199934179112,0.134727378617,-0.203225831852,0.53581999633,0.808359280427
746001000000,0,745800000000,world,AutoNOMOS_mini::front_right_bar_link,3.89815119622,0.330311464725,0.0199893341335,-5.37197696343e-07,-2.56095416555e-05,-0.552484027498,-0.833523484194
746001000000,0,745800000000,world,AutoNOMOS_mini::front_right_wheel_link,3.93496938032,0.314739796515,0.0199929925996,-0.407558751967,0.614896585416,0.373007321677,0.562728700987
746001000000,0,745800000000,world,AutoNOMOS_mini::steer_link,3.86086574335,0.377310919916,0.0199811194453,-6.04822773941e-07,-2.56519517372e-05,-0.552498709453,-0.833513752373
746001000000,0,745800000000,world,AutoNOMOS_mini::ackermann_bar_link,3.8452859733,0.340469757399,0.0199834366814,5.75673267734e-06,-2.4998504168e-05,-0.329108382339,-0.944292153952
746001000000,0,745800000000,world,AutoNOMOS_mini::kinect::link,3.76686866711,0.302730374029,0.209988319449,0.0164543234235,-0.0472199097757,-0.328696666729,-0.943110829459
746200000000,0,746000000000,world,ground_plane::link,0.0,0.0,0.0,0.0,0.0,0.0,1.0
746200000000,0,746000000000,world,AutoNOMOS_mini::base_link,3.74598538796,0.292220686677,0.0699904702639,6.06402319666e-06,-2.49070665318e-05,-0.340868677553,-0.940110921118
746200000000,0,746000000000,world,AutoNOMOS_mini::back_left_wheel_link,3.5591113667,0.266451428067,0.0199961626779,-0.0997475325387,0.275112088226,0.325947628128,0.898956012485
746200000000,0,746000000000,world,AutoNOMOS_mini::back_right_wheel_link,3.68724229892,0.1128859231,0.0199959024985,-0.0625129522875,0.17242018355,0.335087465874,0.924164380029
746200000000,0,746000000000,world,AutoNOMOS_mini::front_left_bar_link,3.83034722245,0.440821732507,0.0199885379885,-3.99241293319e-07,-2.57339553848e-05,-0.562858664625,-0.826553157997
746200000000,0,746000000000,world,AutoNOMOS_mini::front_left_wheel_link,3.79312790524,0.455477112866,0.0199934180234,-0.0969123195949,0.142342337008,0.554452775084,0.814204385648
746200000000,0,746000000000,world,AutoNOMOS_mini::front_right_bar_link,3.90724924304,0.348710451329,0.0199893393483,-2.26783500315e-07,-2.56102673988e-05,-0.562844612326,-0.826562727033
746200000000,0,746000000000,world,AutoNOMOS_mini::front_right_wheel_link,3.94444469361,0.334062687422,0.0199929992086,-0.550916078033,0.809050935357,0.115262874436,0.169241037399
746200000000,0,746000000000,world,AutoNOMOS_mini::steer_link,3.8688022518,0.394764564977,0.0199811220645,-2.94009045149e-07,-2.5653633786e-05,-0.562859065835,-0.826552884787
746200000000,0,746000000000,world,AutoNOMOS_mini::ackermann_bar_link,3.85414692152,0.357545999968,0.0199834387743,6.05824146308e-06,-2.49232746723e-05,-0.340868857926,-0.940110855718
746200000000,0,746000000000,world,AutoNOMOS_mini::kinect::link,3.77669605417,0.317861014547,0.209988321181,0.0170424007467,-0.0470108576655,-0.340442378407,-0.938934780921
746400000000,0,746200000000,world,ground_plane::link,0.0,0.0,0.0,0.0,0.0,0.0,1.0
746400000000,0,746200000000,world,AutoNOMOS_mini::base_link,3.75843873759,0.31036232091,0.0699904723181,6.46462583837e-06,-2.48557277708e-05,-0.355372177876,-0.934724887083
746400000000,0,746200000000,world,AutoNOMOS_mini::back_left_wheel_link,3.5724513855,0.278823898891,0.0199961556357,-0.256188471944,0.673851829472,0.246286056714,0.647791908739
746400000000,0,746200000000,world,AutoNOMOS_mini::back_right_wheel_link,3.70527194267,0.129295976392,0.01999589533,-0.243335069486,0.640044321198,0.258993153119,0.681214986254
746400000000,0,746200000000,world,AutoNOMOS_mini::front_left_bar_link,3.83816279175,0.461502212369,0.0199885345701,3.18563530832e-09,-2.57851908549e-05,-0.575578690127,-0.817746397612
746400000000,0,746200000000,world,AutoNOMOS_mini::front_left_wheel_link,3.80050793466,0.474999106536,0.0199934219666,-0.367564468157,0.522233710757,0.442930233085,0.629270308943
746400000000,0,746200000000,world,AutoNOMOS_mini::front_right_bar_link,3.91787772162,0.371814232377,0.0199893323686,1.73884547288e-07,-2.56586861805e-05,-0.575564974666,-0.817756051203
746400000000,0,746200000000,world,AutoNOMOS_mini::front_right_wheel_link,3.9555085823,0.35832427405,0.0199929944086,-0.516594350018,0.733959053491,-0.253782022945,-0.360595438349
746400000000,0,746200000000,world,AutoNOMOS_mini::steer_link,3.878024309,0.416656807979,0.0199811083949,1.07155033231e-07,-2.57032093263e-05,-0.575579161241,-0.817746066016
746400000000,0,746200000000,world,AutoNOMOS_mini::ackermann_bar_link,3.86452745993,0.37900265552,0.0199834289555,6.45911618495e-06,-2.48721119233e-05,-0.355372391577,-0.934724805836
746400000000,0,746200000000,world,AutoNOMOS_mini::kinect::link,3.78834145351,0.336940509203,0.209988319941,0.0177676752669,-0.0467416163353,-0.354927732989,-0.933555480608
746601000000,0,746400000000,world,ground_plane::link,0.0,0.0,0.0,0.0,0.0,0.0,1.0
746601000000,0,746400000000,world,AutoNOMOS_mini::base_link,3.76781211475,0.324860176277,0.0699952876397,6.79077872177e-06,-2.48169881716e-05,-0.366695421859,-0.930341048716
746601000000,0,746400000000,world,AutoNOMOS_mini::back_left_wheel_link,3.58265459603,0.288819358507,0.0200001969075,-0.342265666716,0.868363965677,0.131604359267,0.33388400549
746601000000,0,746400000000,world,AutoNOMOS_mini::back_right_wheel_link,3.71905470408,0.142549435015,0.0200001521414,-0.341936595764,0.86752895297,0.132457270991,0.336047543655
746601000000,0,746400000000,world,AutoNOMOS_mini::front_left_bar_link,3.84384262546,0.477891369806,0.0199948212149,3.02563494645e-07,-2.58559080103e-05,-0.58546532552,-0.810697447847
746601000000,0,746400000000,world,AutoNOMOS_mini::front_left_wheel_link,3.80587100517,0.490469985749,0.0200006453867,-0.521873553688,0.722653719004,0.265363227977,0.367426119932
746601000000,0,746400000000,world,AutoNOMOS_mini::front_right_bar_link,3.92570987603,0.390166178962,0.0199959788977,5.14079240458e-07,-2.56950281291e-05,-0.585451754045,-0.810707248657
746601000000,0,746400000000,world,AutoNOMOS_mini::front_right_wheel_link,3.96365146677,0.377595849199,0.0200008519565,-0.327675641036,0.453727820164,-0.485162268054,-0.671846197531
746601000000,0,746400000000,world,AutoNOMOS_mini::steer_link,3.88478156886,0.434027045014,0.0199856097543,4.31341112028e-07,-2.57517505361e-05,-0.58546581774,-0.810697092381
746601000000,0,746400000000,world,AutoNOMOS_mini::ackermann_bar_link,3.8722028995,0.39605630657,0.0199880932184,6.78423130176e-06,-2.48375789112e-05,-0.366695781866,-0.930340906818
746601000000,0,746400000000,world,AutoNOMOS_mini::kinect::link,3.79706064619,0.352156642977,0.209993104631,0.0183339241957,-0.0465224841133,-0.366236810042,-0.929177122332
746800000000,0,746600000000,world,ground_plane::link,0.0,0.0,0.0,0.0,0.0,0.0,1.0
746800000000,0,746600000000,world,AutoNOMOS_mini::base_link,3.77924772086,0.343668457176,0.0699952874461,7.17531627729e-06,-2.47264207455e-05,-0.381057948044,-0.924551155734
746800000000,0,746600000000,world,AutoNOMOS_mini::back_left_wheel_link,3.59529504362,0.3019112243,0.0200001936616,-0.377269383256,0.915357928137,-0.0535997437795,-0.130056692721
746800000000,0,746600000000,world,AutoNOMOS_mini::back_right_wheel_link,3.73615918724,0.159935265318,0.0200001493895,-0.373440219371,0.906066471641,-0.0758128954937,-0.183952049188
746800000000,0,746600000000,world,AutoNOMOS_mini::front_left_bar_link,3.85050291777,0.498980669884,0.0199948213948,6.99594040299e-07,-2.5865443266e-05,-0.597948883186,-0.801534236591
746800000000,0,746600000000,world,AutoNOMOS_mini::front_left_wheel_link,3.81216002232,0.510377413657,0.0200006494554,-0.597217706244,0.800552808136,-0.0295614553673,-0.039652655536
746800000000,0,746600000000,world,AutoNOMOS_mini::front_right_bar_link,3.93504745221,0.413832715156,0.0199959735793,9.08647816553e-07,-2.57012491439e-05,-0.597935576114,-0.801544163572
746800000000,0,746600000000,world,AutoNOMOS_mini::front_right_wheel_link,3.97336013505,0.402443372275,0.0200008463263,0.0413826501167,-0.0555009828339,-0.596501823262,-0.799620342424
746800000000,0,746600000000,world,AutoNOMOS_mini::steer_link,3.89278054726,0.456405118773,0.0199856041883,8.2673004219e-07,-2.57592928648e-05,-0.597949405227,-0.801533847149
746800000000,0,746600000000,world,AutoNOMOS_mini::ackermann_bar_link,3.88138373584,0.418063072866,0.0199880887338,7.16909107087e-06,-2.47471414574e-05,-0.381058325197,-0.924551000288
746800000000,0,746600000000,world,AutoNOMOS_mini::kinect::link,3.80763694995,0.371857563777,0.209993103282,0.0190521352942,-0.0462330196977,-0.380581367573,-0.923394469707
747000000000,0,746800000000,world,ground_plane::link,0.0,0.0,0.0,0.0,0.0,0.0,1.0
747000000000,0,746800000000,world,AutoNOMOS_mini::base_link,3.79009630832,0.362824163586,0.0699952864321,7.53272921738e-06,-2.45744605105e-05,-0.395332934276,-0.918537898193
747000000000,0,746800000000,world,AutoNOMOS_mini::back_left_wheel_link,3.60752530648,0.315389022985,0.0200002043761,-0.314872707743,0.731587073302,-0.23904657716,-0.555420800875
747000000000,0,746800000000,world,AutoNOMOS_mini::back_right_wheel_link,3.75271957045,0.177844463679,0.0200001631818,-0.283760721903,0.659298604934,-0.275259904958,-0.639560151166
747000000000,0,746800000000,world,AutoNOMOS_mini::front_left_bar_link,3.85650652829,0.520268986996,0.0199948231501,1.08568600828e-06,-2.58084102083e-05,-0.610292368287,-0.792176258508
747001000000,0,746800000000,world,AutoNOMOS_mini::front_left_wheel_link,3.81782903236,0.530472605576,0.0200006431749,-0.514000368919,0.667172685159,-0.329029477268,-0.427111030081
747001000000,0,746800000000,world,AutoNOMOS_mini::front_right_bar_link,3.94364794644,0.437780665882,0.0199959825766,1.29192753844e-06,-2.56412183289e-05,-0.610279312474,-0.792186316536
747001000000,0,746800000000,world,AutoNOMOS_mini::front_right_wheel_link,3.98229504525,0.427583557505,0.0200008541751,0.408200011694,-0.529892403032,-0.453666821955,-0.588874525106
747001000000,0,746800000000,world,AutoNOMOS_mini::steer_link,3.9000826439,0.479023409676,0.0199856173544,1.21098760359e-06,-2.57005072754e-05,-0.610292912951,-0.792175838901
747001000000,0,746800000000,world,AutoNOMOS_mini::ackermann_bar_link,3.88987894482,0.44034674709,0.019988098125,7.52676440098e-06,-2.45951909214e-05,-0.395333324893,-0.918537730073
747001000000,0,746800000000,world,AutoNOMOS_mini::kinect::link,3.81759875053,0.391879089904,0.209993105172,0.0197659455333,-0.0459323296636,-0.394838495897,-0.91738873475
747200000000,0,747000000000,world,ground_plane::link,0.0,0.0,0.0,0.0,0.0,0.0,1.0
747200000000,0,747000000000,world,AutoNOMOS_mini::base_link,3.79832671085,0.378350148513,0.0699952851651,7.82379960449e-06,-2.44362414508e-05,-0.406660046622,-0.913579556373
747200000000,0,747000000000,world,AutoNOMOS_mini::back_left_wheel_link,3.61698445375,0.326415010377,0.0200002163229,-0.200577873498,0.45059962159,-0.353752552764,-0.794724876356
747200000000,0,747000000000,world,AutoNOMOS_mini::back_right_wheel_link,3.76553544736,0.192502789899,0.0200001755275,-0.137796419918,0.309557372275,-0.382602371201,-0.859535808142
747200000000,0,747000000000,world,AutoNOMOS_mini::front_left_bar_link,3.86082345011,0.537388978751,0.0199948235546,1.40367819572e-06,-2.57478643946e-05,-0.620040620587,-0.784569708922
747200000000,0,747000000000,world,AutoNOMOS_mini::front_left_wheel_link,3.82190547578,0.546633098529,0.0200006349171,-0.343077774722,0.434093067025,-0.516476536766,-0.653538703232
747200000000,0,747000000000,world,AutoNOMOS_mini::front_right_bar_link,3.9499779311,0.457080654221,0.0199959916295,1.60760068705e-06,-2.55783550163e-05,-0.620027744381,-0.784579884742
747200000000,0,747000000000,world,AutoNOMOS_mini::front_right_wheel_link,3.98886536332,0.447842321536,0.0200008623066,0.590754698034,-0.747545760436,-0.188263873793,-0.238203561328
747201000000,0,747000000000,world,AutoNOMOS_mini::steer_link,3.90540613119,0.497233527817,0.0199856303577,1.52749880714e-06,-2.56385922025e-05,-0.620041179378,-0.784569267316
747201000000,0,747000000000,world,AutoNOMOS_mini::ackermann_bar_link,3.89616191959,0.458316382454,0.0199881078329,7.81804279773e-06,-2.44569569982e-05,-0.406660444082,-0.913579379452
747201000000,0,747000000000,world,AutoNOMOS_mini::kinect::link,3.82510228539,0.40807624286,0.209993106804,0.0203323552007,-0.0456843780282,-0.406151437822,-0.912436596423
747402000000,0,747200000000,world,ground_plane::link,0.0,0.0,0.0,0.0,0.0,0.0,1.0
747402000000,0,747200000000,world,AutoNOMOS_mini::base_link,3.80813637189,0.398173913013,0.0699904686291,8.21227890522e-06,-2.42933108023e-05,-0.420828871347,-0.907140044526
747402000000,0,747200000000,world,AutoNOMOS_mini::back_left_wheel_link,3.62848970005,0.340614597544,0.0199961644748,-0.00221566929034,0.00476784626787,-0.420822997944,-0.907127533952
747402000000,0,747200000000,world,AutoNOMOS_mini::back_right_wheel_link,3.78114711772,0.211403089924,0.0199959031735,0.0946683402723,-0.204075656377,-0.410042525077,-0.883886960789
747402000000,0,747200000000,world,AutoNOMOS_mini::front_left_bar_link,3.86565320897,0.559080754692,0.0199885348059,1.84338956946e-06,-2.56799619661e-05,-0.63217578298,-0.774824998791
747402000000,0,747200000000,world,AutoNOMOS_mini::front_left_wheel_link,3.82646654382,0.567109162082,0.0199934165019,-0.0403752975344,0.0494611810786,-0.630885137708,-0.773244702494
747402000000,0,747200000000,world,AutoNOMOS_mini::front_right_bar_link,3.95726593915,0.481585586915,0.0199893365648,2.00444109911e-06,-2.55418587597e-05,-0.632163168239,-0.774835290927
747403000000,0,747200000000,world,AutoNOMOS_mini::front_right_wheel_link,3.99642798785,0.473560814882,0.0199929976655,0.592059931881,-0.725672380756,0.221574605408,0.271605094038
747403000000,0,747200000000,world,AutoNOMOS_mini::steer_link,3.91146377723,0.52033231222,0.0199811166524,1.94106374742e-06,-2.55910218588e-05,-0.632176365179,-0.774824523779
747403000000,0,747200000000,world,AutoNOMOS_mini::ackermann_bar_link,3.90343536568,0.481146289019,0.0199834348572,8.20789110386e-06,-2.43099813864e-05,-0.420829146119,-0.907139917057
747403000000,0,747200000000,world,AutoNOMOS_mini::kinect::link,3.83397382329,0.428718925368,0.209988318622,0.0210408920163,-0.0453623866266,-0.420302535268,-0.906005139936
747600000000,0,747402000000,world,ground_plane::link,0.0,0.0,0.0,0.0,0.0,0.0,1.0
747600000000,0,747402000000,world,AutoNOMOS_mini::base_link,3.81548807466,0.414136808793,0.0699904680452,8.54379516699e-06,-2.42124017236e-05,-0.432014917261,-0.901866459408
747600000000,0,747402000000,world,AutoNOMOS_mini::back_left_wheel_link,3.63731985359,0.352152205977,0.0199961620392,0.168380308701,-0.351515069425,-0.397850380758,-0.830542173607
747600000000,0,747402000000,world,AutoNOMOS_mini::back_right_wheel_link,3.79312613517,0.226755618681,0.0199958973926,0.272267018366,-0.568386017755,-0.335421508182,-0.700214550963
747600000000,0,747402000000,world,AutoNOMOS_mini::front_left_bar_link,3.86900788753,0.576416896214,0.0199885296157,2.18592906637e-06,-2.56850266401e-05,-0.641709369427,-0.766947902093
747600000000,0,747402000000,world,AutoNOMOS_mini::front_left_wheel_link,3.82963465956,0.583473714646,0.0199934160973,0.220759817446,-0.263867089309,-0.602541300541,-0.720127241065
747600000000,0,747402000000,world,AutoNOMOS_mini::front_right_bar_link,3.96250914985,0.501211131716,0.0199893273709,2.34537929536e-06,-2.55448190216e-05,-0.641696887841,-0.766958345333
747600000000,0,747402000000,world,AutoNOMOS_mini::front_right_wheel_link,4.00185768387,0.494157341306,0.019992988819,0.404996676425,-0.484034188325,0.497747511654,0.594925214846
747600000000,0,747402000000,world,AutoNOMOS_mini::steer_link,3.91576274038,0.538813259368,0.0199811053191,2.28258388646e-06,-2.55947646145e-05,-0.64170995807,-0.766947409575
747600000000,0,747402000000,world,AutoNOMOS_mini::ackermann_bar_link,3.90870590543,0.499440668893,0.0199834267588,8.53965150433e-06,-2.42291707431e-05,-0.432015192656,-0.901866327487
747600000000,0,747402000000,world,AutoNOMOS_mini::kinect::link,3.84056220738,0.44531148269,0.209988315654,0.0216002936904,-0.0450987358041,-0.431474584855,-0.9007381495
747800000000,0,747600000000,world,ground_plane::link,0.0,0.0,0.0,0.0,0.0,0.0,1.0
747800000000,0,747600000000,world,AutoNOMOS_mini::base_link,3.82425302727,0.434666044432,0.0699952847762,8.9546198363e-06,-2.4121866765e-05,-0.446129300989,-0.894968516841
747800000000,0,747600000000,world,AutoNOMOS_mini::back_left_wheel_link,3.64812821606,0.367120954933,0.0200002041469,0.353744114885,-0.709641739392,-0.271838940485,-0.545323109113
747801000000,0,747600000000,world,AutoNOMOS_mini::back_right_wheel_link,3.80778687123,0.246667657014,0.0200001508769,0.424710044518,-0.852002222038,-0.136575137782,-0.273972304197
747801000000,0,747600000000,world,AutoNOMOS_mini::front_left_bar_link,3.87264841746,0.598547333194,0.0199948174186,2.58301819195e-06,-2.57291023149e-05,-0.653678400448,-0.756772454651
747801000000,0,747600000000,world,AutoNOMOS_mini::front_left_wheel_link,3.83307279613,0.60436379154,0.0200006422655,0.50316753215,-0.582539307476,-0.417274354775,-0.483065733293
747801000000,0,747600000000,world,AutoNOMOS_mini::front_right_bar_link,3.96846401554,0.526316330061,0.0199959733452,2.77968657797e-06,-2.55504973247e-05,-0.653666027161,-0.756783142171
747801000000,0,747600000000,world,AutoNOMOS_mini::front_right_wheel_link,4.0080087369,0.520503002885,0.0200008459242,0.00668343420721,-0.00771330132809,0.653631855336,0.756743836698
747801000000,0,747600000000,world,AutoNOMOS_mini::steer_link,3.92056174294,0.562431017349,0.0199856055313,2.70217409638e-06,-2.56142099475e-05,-0.653678984861,-0.756771949855
747801000000,0,747600000000,world,AutoNOMOS_mini::ackermann_bar_link,3.91474513886,0.5228561931,0.0199880904867,8.94987159782e-06,-2.41429512071e-05,-0.446129702462,-0.894968316712
747802000000,0,747600000000,world,AutoNOMOS_mini::kinect::link,3.84833544996,0.466613042615,0.209993101236,0.0223061269186,-0.0447538991298,-0.445571309125,-0.89384883157
748000000000,0,747800000000,world,ground_plane::link,0.0,0.0,0.0,0.0,0.0,0.0,1.0
748000000000,0,747800000000,world,AutoNOMOS_mini::base_link,3.83205090294,0.454608989293,0.0699952882711,9.29042345743e-06,-2.40097798981e-05,-0.459567774665,-0.8881427024
748000000000,0,747800000000,world,AutoNOMOS_mini::back_left_wheel_link,3.65804199264,0.381786051869,0.0200001938033,0.453628144921,-0.876665332033,-0.0736478083097,-0.142321474409
748000000000,0,747800000000,world,AutoNOMOS_mini::back_right_wheel_link,3.82125866608,0.266199712868,0.0200001500072,0.446049296305,-0.862015453831,0.110646294694,0.213838210087
748000000000,0,747800000000,world,AutoNOMOS_mini::front_left_bar_link,3.87548476388,0.619874508537,0.0199948214805,2.93826688387e-06,-2.57054587954e-05,-0.665010367205,-0.746834125385
748000000000,0,747800000000,world,AutoNOMOS_mini::front_left_wheel_link,3.83575182603,0.624495484343,0.0200006488497,0.653471879339,-0.733880319415,-0.123342177455,-0.13849507915
748000000000,0,747800000000,world,AutoNOMOS_mini::front_right_bar_link,3.97343393905,0.550564302311,0.0199959782109,3.13229714343e-06,-2.55238340581e-05,-0.664998189778,-0.746844968471
748000000000,0,747800000000,world,AutoNOMOS_mini::front_right_wheel_link,4.01313592633,0.545945546444,0.0200008529855,-0.394571566872,0.443154125012,0.535290450637,0.601158742395
748000000000,0,747800000000,world,AutoNOMOS_mini::steer_link,3.92446489549,0.585218753737,0.0199856051337,3.05563332624e-06,-2.55888315935e-05,-0.665010955273,-0.74683360175
748000000000,0,747800000000,world,AutoNOMOS_mini::ackermann_bar_link,3.91984375844,0.545486592326,0.0199880899546,9.28596899227e-06,-2.40309831198e-05,-0.45956817965,-0.888142492841
748000000000,0,747800000000,world,AutoNOMOS_mini::kinect::link,3.85515947973,0.487267337609,0.209993104185,0.0229781066056,-0.0444126384092,-0.458992971355,-0.887031553223
748200000000,0,748000000000,world,ground_plane::link,0.0,0.0,0.0,0.0,0.0,0.0,1.0
748200000000,0,748000000000,world,AutoNOMOS_mini::base_link,3.83809825845,0.471433153372,0.0699904745382,9.54332375769e-06,-2.38814539519e-05,-0.470708593648,-0.882288739135
748200000000,0,748000000000,world,AutoNOMOS_mini::back_left_wheel_link,3.6659693621,0.394247408282,0.0199961482074,0.455873481791,-0.8544802687,0.117242958192,0.21976562005
748200000000,0,748000000000,world,AutoNOMOS_mini::back_right_wheel_link,3.83205265632,0.282819210634,0.0199958948954,0.358215169891,-0.671427777453,0.305366178112,0.572379357585
748200000000,0,748000000000,world,AutoNOMOS_mini::front_left_bar_link,3.87735900377,0.637739476977,0.0199885354479,3.24117922442e-06,-2.56160427438e-05,-0.674356539956,-0.738405888623
748200000000,0,748000000000,world,AutoNOMOS_mini::front_left_wheel_link,3.83752250504,0.641358990076,0.0199934291059,0.655704874868,-0.717977265385,0.157505114492,0.172487397725
748200000000,0,748000000000,world,AutoNOMOS_mini::front_right_bar_link,3.97702363689,0.570916189904,0.019989329649,3.39456704076e-06,-2.54688802523e-05,-0.674344598763,-0.738416793863
748200000000,0,748000000000,world,AutoNOMOS_mini::front_right_wheel_link,4.01683532528,0.567297597251,0.0199929937021,-0.621975474333,0.681081037631,0.260551615996,0.285285795142
748200000000,0,748000000000,world,AutoNOMOS_mini::steer_link,3.92719558403,0.604327438976,0.0199810997224,3.33378580544e-06,-2.5521713141e-05,-0.674357135985,-0.738405344295
748200000000,0,748000000000,world,AutoNOMOS_mini::ackermann_bar_link,3.92357601679,0.564491544925,0.0199834219446,9.53988101049e-06,-2.38984866599e-05,-0.470708878412,-0.882288587211
748200000000,0,748000000000,world,AutoNOMOS_mini::kinect::link,3.86037757904,0.504662735441,0.209988319945,0.0235351614071,-0.0441199313898,-0.470119854586,-0.881184912579
748401000000,0,748200000000,world,ground_plane::link,0.0,0.0,0.0,0.0,0.0,0.0,1.0
748401000000,0,748200000000,world,AutoNOMOS_mini::base_link,3.84478125486,0.491776239057,0.0699904713635,9.86558794959e-06,-2.37035088222e-05,-0.483953851974,-0.87509351986
748401000000,0,748200000000,world,AutoNOMOS_mini::back_left_wheel_link,3.67505714178,0.40943715682,0.0199961562271,0.355420277839,-0.642672045658,0.328462659668,0.593937159163
748401000000,0,748200000000,world,AutoNOMOS_mini::back_right_wheel_link,3.84442371726,0.303065791577,0.0199959017676,0.147897854638,-0.267424189105,0.460801026893,0.833230425086
748401000000,0,748200000000,world,AutoNOMOS_mini::front_left_bar_link,3.87901126079,0.659190419312,0.019988538468,3.59925529227e-06,-2.55245760591e-05,-0.685409920956,-0.728157427752
748401000000,0,748200000000,world,AutoNOMOS_mini::front_left_wheel_link,3.83908375665,0.66160751365,0.0199934259012,0.505441771077,-0.536949559881,0.462942087978,0.491831688053
748402000000,0,748200000000,world,AutoNOMOS_mini::front_right_bar_link,3.98064483223,0.595401645632,0.0199893341294,3.75022228783e-06,-2.5375329085e-05,-0.685398159357,-0.728168498695
748403000000,0,748200000000,world,AutoNOMOS_mini::front_right_wheel_link,4.02054750041,0.592984731261,0.0199929956419,-0.664301302836,0.705749412305,-0.16874363179,-0.179296215277
748403000000,0,748200000000,world,AutoNOMOS_mini::steer_link,3.92983232317,0.627295765106,0.019981111102,3.69034268707e-06,-2.54290046051e-05,-0.685410505538,-0.728156877491
748403000000,0,748200000000,world,AutoNOMOS_mini::ackermann_bar_link,3.92741515595,0.587368869255,0.0199834290962,9.86234735934e-06,-2.37205150385e-05,-0.483954135365,-0.875093363135
748403000000,0,748200000000,world,AutoNOMOS_mini::kinect::link,3.86604882198,0.525662266185,0.209988319793,0.0241974796541,-0.043760137394,-0.483348543229,-0.873998694571
748600000000,0,748401000000,world,ground_plane::link,0.0,0.0,0.0,0.0,0.0,0.0,1.0
748600000000,0,748401000000,world,AutoNOMOS_mini::base_link,3.84980648149,0.508617442793,0.0699904673323,1.01812176709e-05,-2.355277972e-05,-0.494742507598,-0.869039613894
748600000000,0,748401000000,world,AutoNOMOS_mini::back_left_wheel_link,3.68217136372,0.422104589264,0.0199961623561,0.20134481665,-0.353665661816,0.451918549092,0.7938201871
748600000000,0,748401000000,world,AutoNOMOS_mini::back_right_wheel_link,3.85411772742,0.319955910361,0.0199959032944,-0.0711861600821,0.125049227073,0.48959443504,0.859995645686
748600000000,0,748401000000,world,AutoNOMOS_mini::front_left_bar_link,3.87988420085,0.676827226044,0.0199885342095,3.94381032072e-06,-2.54577693264e-05,-0.694365435772,-0.719622568394
748600000000,0,748401000000,world,AutoNOMOS_mini::front_left_wheel_link,3.83990911006,0.678255774063,0.0199934189894,0.279403064492,-0.289545493812,0.635670737871,0.658801979035
748600000000,0,748401000000,world,AutoNOMOS_mini::front_right_bar_link,3.98306479335,0.615572379969,0.0199893301593,4.09284624295e-06,-2.53067463129e-05,-0.694353797338,-0.719633798168
748600000000,0,748401000000,world,AutoNOMOS_mini::front_right_wheel_link,4.02301503368,0.614143388656,0.0199929900733,-0.494349924419,0.51233205988,-0.487591371409,-0.505359938235
748600000000,0,748401000000,world,AutoNOMOS_mini::steer_link,3.93147878219,0.646199643248,0.0199811113275,4.03373653081e-06,-2.53610493614e-05,-0.694366007617,-0.719622016622
748601000000,0,748401000000,world,AutoNOMOS_mini::ackermann_bar_link,3.93005014192,0.606225167494,0.0199834293388,1.01781926804e-05,-2.3569782554e-05,-0.494742785718,-0.869039455561
748601000000,0,748401000000,world,AutoNOMOS_mini::kinect::link,3.87022919254,0.543019257215,0.209988316438,0.0247370026048,-0.0434574177415,-0.494123700071,-0.867952361926
748800000000,0,748600000000,world,ground_plane::link,0.0,0.0,0.0,0.0,0.0,0.0,1.0
748800000000,0,748600000000,world,AutoNOMOS_mini::base_link,3.85551268945,0.529884852762,0.0699904658282,1.06157629008e-05,-2.33804316503e-05,-0.50815266802,-0.861267011632
748801000000,0,748600000000,world,AutoNOMOS_mini::back_left_wheel_link,3.69063956479,0.438217688852,0.0199961645687,-0.0452158935846,0.07664308581,0.506136955511,0.857850070019
748801000000,0,748600000000,world,AutoNOMOS_mini::back_right_wheel_link,3.86566941421,0.341447569974,0.019995897023,-0.332920696485,0.564271902291,0.383904904718,0.650675075802
748801000000,0,748600000000,world,AutoNOMOS_mini::front_left_bar_link,3.88036228389,0.698946071183,0.0199885265911,4.40924917208e-06,-2.53999541564e-05,-0.705435745354,-0.708773876855
748802000000,0,748600000000,world,AutoNOMOS_mini::front_left_wheel_link,3.84036211583,0.699134897174,0.0199934135098,-0.0746329838207,0.075008205828,0.701476663619,0.704793712502
748802000000,0,748600000000,world,AutoNOMOS_mini::front_right_bar_link,3.98539190169,0.640918742987,0.0199893223533,4.55600032182e-06,-2.52465415822e-05,-0.705424252283,-0.708785315616
748802000000,0,748600000000,world,AutoNOMOS_mini::front_right_wheel_link,4.02536723104,0.640728686006,0.0199929829077,-0.0904357493579,0.0908442727868,-0.699603279237,-0.702939503102
748803000000,0,748600000000,world,AutoNOMOS_mini::steer_link,3.93288138205,0.66993238369,0.0199811020853,4.49778474632e-06,-2.53016678663e-05,-0.705436305858,-0.708773318993
748803000000,0,748600000000,world,AutoNOMOS_mini::ackermann_bar_link,3.93269244045,0.629932833008,0.0199834242834,1.06130432319e-05,-2.33975256988e-05,-0.508152938919,-0.861266851799
748803000000,0,748600000000,world,AutoNOMOS_mini::kinect::link,3.8748592872,0.564903156999,0.209988313073,0.0254076661531,-0.0430687768788,-0.507517079394,-0.860189482081
749000000000,0,748800000000,world,ground_plane::link,0.0,0.0,0.0,0.0,0.0,0.0,1.0
749000000000,0,748800000000,world,AutoNOMOS_mini::base_link,3.86047118978,0.55092484119,0.0699904702021,1.10130722793e-05,-2.32332219707e-05,-0.521199904588,-0.853434624793
749000000000,0,748800000000,world,AutoNOMOS_mini::back_left_wheel_link,3.69846391659,0.454282913649,0.0199961591701,-0.289113506359,0.473412101377,0.433661943216,0.710092727548
749000000000,0,748800000000,world,AutoNOMOS_mini::back_right_wheel_link,3.87635740803,0.362883883323,0.0199958892034,-0.498400585715,0.816103975439,0.152467138833,0.249649612474
749000000000,0,748800000000,world,AutoNOMOS_mini::front_left_bar_link,3.88016459195,0.720663954013,0.0199885252652,4.83229696165e-06,-2.53573280093e-05,-0.716139613176,-0.697957057257
749000000000,0,748800000000,world,AutoNOMOS_mini::front_left_wheel_link,3.8401772104,0.719635455222,0.0199934168532,-0.414106029727,0.403609829444,0.58427060746,0.56942353216
749000000000,0,748800000000,world,AutoNOMOS_mini::front_right_bar_link,3.98691139002,0.665859641604,0.019989322267,4.97685957665e-06,-2.52015014633e-05,-0.716128287844,-0.697968677442
749000000000,0,748800000000,world,AutoNOMOS_mini::front_right_wheel_link,4.02687399224,0.666886152086,0.019992985966,0.357700735391,-0.348649386015,-0.620394959619,-0.604651869766
749000000000,0,748800000000,world,AutoNOMOS_mini::steer_link,3.93354227854,0.693261905345,0.0199810946073,4.91944655999e-06,-2.52575290185e-05,-0.716140171594,-0.697956484293
749000000000,0,748800000000,world,AutoNOMOS_mini::ackermann_bar_link,3.93457064663,0.653275129821,0.0199834208031,1.10105996343e-05,-2.32505085876e-05,-0.521200173306,-0.853434460685
749000000000,0,748800000000,world,AutoNOMOS_mini::kinect::link,3.87874318543,0.58651567425,0.209988315036,0.0260601533948,-0.0426771734728,-0.520547990181,-0.852366891185
749200000000,0,749000000000,world,ground_plane::link,0.0,0.0,0.0,0.0,0.0,0.0,1.0
749200000000,0,749000000000,world,AutoNOMOS_mini::base_link,3.86391260861,0.567542080964,0.0699904744841,1.12716994052e-05,-2.31248511094e-05,-0.531358266244,-0.847147208124
749200000000,0,749000000000,world,AutoNOMOS_mini::back_left_wheel_link,3.70426052398,0.467057178478,0.0199961526455,-0.441201316988,0.703413201947,0.296113093918,0.472089293275
749200000000,0,749000000000,world,AutoNOMOS_mini::back_right_wheel_link,3.8842864661,0.379934356856,0.0199958880822,-0.525981455187,0.838573914982,-0.0753999197407,-0.120217095347
749200000000,0,749000000000,world,AutoNOMOS_mini::front_left_bar_link,3.8795451012,0.737703246585,0.0199885297097,5.11106113613e-06,-2.53174785326e-05,-0.724426662874,-0.689351876367
749200000000,0,749000000000,world,AutoNOMOS_mini::front_left_wheel_link,3.83959372063,0.735719694467,0.019993423816,-0.616308133566,0.586479524003,0.380733864269,0.362281350642
749200000000,0,749000000000,world,AutoNOMOS_mini::front_right_bar_link,3.98757077353,0.685464903232,0.0199893270488,5.25385015879e-06,-2.51598239561e-05,-0.724415537586,-0.689363567534
749200000000,0,749000000000,world,AutoNOMOS_mini::front_right_wheel_link,4.02749746216,0.687445909071,0.0199929926284,0.622727090199,-0.592606714403,-0.370120034027,-0.352192296323
749200000000,0,749000000000,world,AutoNOMOS_mini::steer_link,3.93356222227,0.711584279032,0.0199810947797,5.19701827892e-06,-2.52166471162e-05,-0.724427202432,-0.689351309358
749200000000,0,749000000000,world,AutoNOMOS_mini::ackermann_bar_link,3.93554563076,0.671633486844,0.019983421108,1.1269373747e-05,-2.31422705312e-05,-0.531358538871,-0.847147037123
749200000000,0,749000000000,world,AutoNOMOS_mini::kinect::link,3.88132908529,0.60355929618,0.209988318678,0.0265681172397,-0.0423628259527,-0.530693643479,-0.846087337628
749400000000,0,749200000000,world,ground_plane::link,0.0,0.0,0.0,0.0,0.0,0.0,1.0
749400000000,0,749200000000,world,AutoNOMOS_mini::base_link,3.86775316798,0.589018822645,0.0699904752694,1.15395000578e-05,-2.29846537892e-05,-0.544306930809,-0.838886145083
749402000000,0,749200000000,world,AutoNOMOS_mini::back_left_wheel_link,3.71126267638,0.483677776314,0.0199961485221,-0.542225324197,0.835678622258,0.0475572436705,0.0732887895562
749402000000,0,749200000000,world,AutoNOMOS_mini::back_right_wheel_link,3.89387964039,0.402125410552,0.0199958937136,-0.41379771828,0.637740868625,-0.353612098671,-0.544992216922
749403000000,0,749200000000,world,AutoNOMOS_mini::front_left_bar_link,3.87815187193,0.759579860145,0.0199885370919,5.40691496612e-06,-2.52492569524e-05,-0.734928914895,-0.678144150888
749403000000,0,749200000000,world,AutoNOMOS_mini::front_left_wheel_link,3.83828024558,0.756370181174,0.019993431327,-0.734397818683,0.677654903326,0.0279348320272,0.0257550203163
749403000000,0,749200000000,world,AutoNOMOS_mini::front_right_bar_link,3.9877310455,0.710684100497,0.0199893304571,5.54723516629e-06,-2.50894974485e-05,-0.734917964615,-0.678156017909
749403000000,0,749200000000,world,AutoNOMOS_mini::front_right_wheel_link,4.02757802941,0.713890485368,0.019992994566,0.729507851648,-0.673161124965,0.0890095864001,0.0821564832978
749403000000,0,749200000000,world,AutoNOMOS_mini::steer_link,3.93294573903,0.735132312875,0.0199811002905,5.49133987899e-06,-2.51471702127e-05,-0.734929504323,-0.678143512107
749403000000,0,749200000000,world,AutoNOMOS_mini::ackermann_bar_link,3.93615527809,0.695261288951,0.0199834222376,1.15372856096e-05,-2.30021996598e-05,-0.544307205871,-0.83888596661
749403000000,0,749200000000,world,AutoNOMOS_mini::kinect::link,3.88405519989,0.625553967452,0.209988320684,0.027215549143,-0.0419498041775,-0.543626111903,-0.837836605951
749600000000,0,749400000000,world,ground_plane::link,0.0,0.0,0.0,0.0,0.0,0.0,1.0
749600000000,0,749400000000,world,AutoNOMOS_mini::base_link,3.87094859232,0.610702502681,0.0699952848677,1.18408920886e-05,-2.28053413946e-05,-0.557190746267,-0.830384532379
749600000000,0,749400000000,world,AutoNOMOS_mini::back_left_wheel_link,3.7177905746,0.500589195463,0.0200001989815,-0.509110631947,0.758727969895,-0.2264240269,-0.337446873122
749601000000,0,749400000000,world,AutoNOMOS_mini::back_right_wheel_link,3.90283143601,0.424697248038,0.0200001769769,-0.162697573972,0.242462800768,-0.532908125075,-0.794197846822
749601000000,0,749400000000,world,AutoNOMOS_mini::front_left_bar_link,3.87607752366,0.781503241658,0.019994824739,5.72367080253e-06,-2.51827006442e-05,-0.745308870881,-0.666719345991
749601000000,0,749400000000,world,AutoNOMOS_mini::front_left_wheel_link,3.83632379674,0.777064349505,0.0200006433193,-0.661185818926,0.591456906143,-0.343974747763,-0.307722949953
749601000000,0,749400000000,world,AutoNOMOS_mini::front_right_bar_link,3.9871116701,0.73601298368,0.0199959846201,5.89567531505e-06,-2.49806251735e-05,-0.745298006979,-0.666731490282
749601000000,0,749400000000,world,AutoNOMOS_mini::front_right_wheel_link,4.02683464273,0.740447102793,0.0200008555398,0.528726052481,-0.472974537184,0.525278855625,0.469921240674
749602000000,0,749400000000,world,AutoNOMOS_mini::steer_link,3.93160017017,0.758758718122,0.0199856199209,5.82726306061e-06,-2.50535365301e-05,-0.745309463129,-0.666718683935
749602000000,0,749400000000,world,AutoNOMOS_mini::ackermann_bar_link,3.93603876279,0.719005750922,0.0199880968923,1.18383216794e-05,-2.28272696651e-05,-0.557191131253,-0.830384274051
749602000000,0,749400000000,world,AutoNOMOS_mini::kinect::link,3.88611511711,0.647723429007,0.209993104565,0.0278597716347,-0.0415247285328,-0.556493810815,-0.829345626726
749801000000,0,749600000000,world,ground_plane::link,0.0,0.0,0.0,0.0,0.0,0.0,1.0
749801000000,0,749600000000,world,AutoNOMOS_mini::base_link,3.87306130905,0.628455348857,0.0699904662295,1.21408762859e-05,-2.26302203017e-05,-0.567606317042,-0.82330010822
749801000000,0,749600000000,world,AutoNOMOS_mini::back_left_wheel_link,3.72271941171,0.514510767213,0.0199961583098,-0.382577218071,0.55491501621,-0.419298892468,-0.608187829353
749801000000,0,749600000000,world,AutoNOMOS_mini::back_right_wheel_link,3.90961938492,0.44331963411,0.0199959024429,0.0940425183542,-0.136412908738,-0.559761530245,-0.81192028693
749801000000,0,749600000000,world,AutoNOMOS_mini::front_left_bar_link,3.87388605837,0.799331099824,0.0199885336607,6.08048693978e-06,-2.50570400079e-05,-0.753647934345,-0.657278320343
749801000000,0,749600000000,world,AutoNOMOS_mini::front_left_wheel_link,3.83425690532,0.793892208366,0.0199934226294,-0.467303851312,0.407532912727,-0.591280238506,-0.515685674752
749801000000,0,749600000000,world,AutoNOMOS_mini::front_right_bar_link,3.98603298848,0.756652559445,0.0199893220876,6.21606832925e-06,-2.48937185854e-05,-0.753637237669,-0.657290585161
749801000000,0,749600000000,world,AutoNOMOS_mini::front_right_wheel_link,4.02563763667,0.762086739673,0.0199929804909,0.18625335667,-0.162421736475,0.730259385799,0.636906662002
749801000000,0,749600000000,world,AutoNOMOS_mini::steer_link,3.92996379126,0.777992407004,0.019981104387,6.16213524437e-06,-2.49525810091e-05,-0.753648521359,-0.657277647264
749801000000,0,749600000000,world,AutoNOMOS_mini::ackermann_bar_link,3.9354025104,0.738363880917,0.0199834221296,1.21389584754e-05,-2.26478563446e-05,-0.567606577648,-0.82329992855
749801000000,0,749600000000,world,AutoNOMOS_mini::kinect::link,3.88729043246,0.665846579653,0.209988314098,0.028380634067,-0.0411704725392,-0.566896349555,-0.822270065527
750000000000,0,749801000000,world,ground_plane::link,0.0,0.0,0.0,0.0,0.0,0.0,1.0
750000000000,0,749801000000,world,AutoNOMOS_mini::base_link,3.87502863388,0.650083238594,0.0699952811981,1.25832203883e-05,-2.2384345515e-05,-0.580143349871,-0.814514390874
750001000000,0,749801000000,world,AutoNOMOS_mini::back_left_wheel_link,3.72825124435,0.531597871053,0.0200002217592,-0.136982967951,0.192316768145,-0.56373923034,-0.791484685485
750001000000,0,749801000000,world,AutoNOMOS_mini::back_right_wheel_link,3.91723751763,0.466146065318,0.020000165133,0.386256263007,-0.542303705396,-0.432865395468,-0.607733773792
750001000000,0,749801000000,world,AutoNOMOS_mini::front_left_bar_link,3.87062185346,0.820904125533,0.0199948158032,6.55115392716e-06,-2.49617630704e-05,-0.763621644349,-0.645663986618
750001000000,0,749801000000,world,AutoNOMOS_mini::front_left_wheel_link,3.83117761224,0.814254555403,0.0200006309006,-0.118563235782,0.100228315621,-0.754361170847,-0.637837179684
750001000000,0,749801000000,world,AutoNOMOS_mini::front_right_bar_link,3.98402067932,0.781678466886,0.0199959783335,6.71737151848e-06,-2.47550771765e-05,-0.763611029795,-0.645676540164
750001000000,0,749801000000,world,AutoNOMOS_mini::front_right_wheel_link,4.02343439785,0.788321485688,0.0200008480729,-0.300855697652,0.254409809376,0.701845887355,0.593442371665
750001000000,0,749801000000,world,AutoNOMOS_mini::steer_link,3.92732681482,0.801292223692,0.0199856184116,6.65137963591e-06,-2.48293793719e-05,-0.763622189431,-0.645663341958
750001000000,0,749801000000,world,AutoNOMOS_mini::ackermann_bar_link,3.93397602196,0.761848749678,0.0199880995251,1.25811991258e-05,-2.24064055547e-05,-0.580143711871,-0.814514133036
750002000000,0,749801000000,world,AutoNOMOS_mini::kinect::link,3.88810637755,0.687892561558,0.209993100859,0.0290076650113,-0.0407311316742,-0.579417692123,-0.813495340084
750201000000,0,750000000000,world,ground_plane::link,0.0,0.0,0.0,0.0,0.0,0.0,1.0
750201000000,0,750000000000,world,AutoNOMOS_mini::base_link,3.87614254268,0.66772604486,0.069990470687,1.29151371282e-05,-2.22056265114e-05,-0.590252867927,-0.807218403682
750201000000,0,750000000000,world,AutoNOMOS_mini::back_left_wheel_link,3.73235912663,0.545609604791,0.0199961634681,0.0996452040277,-0.13627852862,-0.581781091588,-0.795631671958
750201000000,0,750000000000,world,AutoNOMOS_mini::back_right_wheel_link,3.92292369309,0.484905748793,0.0199958904556,0.547108286476,-0.74821687679,-0.221519767949,-0.302940622175
750201000000,0,750000000000,world,AutoNOMOS_mini::front_left_bar_link,3.86747822456,0.838383973053,0.0199885257336,6.93902155219e-06,-2.48399535182e-05,-0.771611834378,-0.636093685225
750201000000,0,750000000000,world,AutoNOMOS_mini::front_left_wheel_link,3.82821219754,0.830753067797,0.0199934129381,0.199555614909,-0.164527214076,-0.745360570773,-0.614447696654
750201000000,0,750000000000,world,AutoNOMOS_mini::front_right_bar_link,3.98182185307,0.801998174854,0.0199893296486,7.07009326406e-06,-2.46728061566e-05,-0.771601427651,-0.636106308873
750201000000,0,750000000000,world,AutoNOMOS_mini::front_right_wheel_link,4.02106364769,0.809622981688,0.0199929943392,-0.622164012281,0.512922643399,0.456377806673,0.376220150028
750201000000,0,750000000000,world,AutoNOMOS_mini::steer_link,3.92465427772,0.820191893445,0.0199811016136,7.01796420856e-06,-2.47329014507e-05,-0.771612368006,-0.636093037911
750201000000,0,750000000000,world,AutoNOMOS_mini::ackermann_bar_link,3.93228496213,0.780926483107,0.0199834272858,1.29137044278e-05,-2.22234361191e-05,-0.590253112776,-0.807218224644
